City_ID,City,Lat,Lng,Max Temp,Humidity,Cloudiness,Wind Speed,Country,Date
0,carlsbad,33.1581,-117.3506,25.98,82,100,2.06,US,1718215019
1,mananjary,-21.2167,48.3333,19.94,86,44,3.98,MG,1718215123
2,adamstown,-25.066,-130.1015,21.08,77,78,4.88,PN,1718215124
3,magadan,59.5667,150.8,8.63,85,82,1.95,RU,1718215125
4,happy valley-goose bay,53.3168,-60.3315,24.17,35,40,3.6,CA,1718215125
5,blackmans bay,-43.0167,147.3167,5.07,88,99,2.16,AU,1718215125
6,uturoa,-16.7333,-151.4333,26.17,66,89,8.13,PF,1718215126
7,badger,64.8,-147.5333,15.2,88,75,4.63,US,1718215126
8,ushuaia,-54.8,-68.3,0.81,69,20,2.06,AR,1718215126
9,meadow lakes,61.6247,-149.6011,9.99,86,100,2.06,US,1718215126
10,west island,-12.1568,96.8225,25.99,94,40,8.23,CC,1718215127
11,kruisfontein,-34.0033,24.7314,16.6,74,1,4.56,ZA,1718215127
12,anadyr,64.75,177.4833,4.28,86,0,2.0,RU,1718215127
13,chengtangcun,35.0771,117.1518,24.58,64,55,4.03,CN,1718215128
14,dubinino,55.6192,89.0911,15.75,81,8,1.24,RU,1718215128
15,klyuchi,52.2667,79.1667,16.96,72,97,2.03,RU,1718215128
16,utrik,11.2278,169.8474,27.66,81,70,9.71,MH,1718215129
17,port-aux-francais,-49.35,70.2167,2.42,73,49,18.4,TF,1718215130
18,kismayo,-0.3582,42.5454,26.05,79,29,7.69,SO,1718215130
19,edinburgh of the seven seas,-37.0676,-12.3116,12.79,70,32,11.97,SH,1718215130
20,nemuro,43.3236,145.575,12.37,98,64,6.28,JP,1718215131
21,port mathurin,-19.6833,63.4167,24.14,76,97,11.6,MU,1718215131
22,arraial do cabo,-22.9661,-42.0278,26.98,61,0,5.66,BR,1718215131
23,letlhakane,-21.4167,25.5833,11.95,41,0,0.85,BW,1718215132
24,papatowai,-46.5619,169.4708,4.5,77,98,4.1,NZ,1718215132
25,svetlyy,54.675,20.1347,16.13,80,26,1.76,RU,1718215132
26,yellowknife,62.456,-114.3525,15.23,55,20,5.14,CA,1718215133
27,lorengau,-2.0226,147.2712,25.38,88,100,5.37,PG,1718215133
28,atafu village,-8.5421,-172.5159,28.73,73,77,2.96,TK,1718215133
29,kodiak,57.79,-152.4072,7.73,81,100,2.57,US,1718215134
30,stanley,54.868,-1.6985,12.1,81,20,2.57,GB,1718215134
31,thompson,55.7435,-97.8558,16.09,55,75,4.63,CA,1718215134
32,kolonia,50.9333,6.95,15.46,64,40,1.54,DE,1718215135
33,tirano,46.2154,10.1679,15.81,95,94,1.9,IT,1718215135
34,salinas,36.6777,-121.6555,16.65,83,100,4.63,US,1718215135
35,sitka,57.0531,-135.33,10.94,66,20,3.09,US,1718214883
36,bethel,41.3712,-73.414,24.79,58,100,3.09,US,1718215052
37,barah,13.7,30.3667,35.27,15,76,1.04,SD,1718215136
38,talnakh,69.4865,88.3972,8.45,63,26,1.12,RU,1718215137
39,tabou,4.423,-7.3528,26.81,79,56,3.82,CI,1718215137
40,winnipeg,49.8844,-97.147,22.23,59,40,3.09,CA,1718214286
41,margaret river,-33.95,115.0667,11.01,81,18,2.09,AU,1718215137
42,hermanus,-34.4187,19.2345,11.56,84,0,3.19,ZA,1718215138
43,bredasdorp,-34.5322,20.0403,13.17,85,0,2.35,ZA,1718215138
44,puerto aysen,-45.4,-72.7,9.34,98,100,0.47,CL,1718215138
45,hinthada,17.6333,95.4667,25.78,90,99,3.52,MM,1718215139
46,udachny,66.4167,112.4,20.25,38,81,2.05,RU,1718215139
47,avarua,-21.2078,-159.775,23.03,73,40,6.17,CK,1718215139
48,hamilton,39.1834,-84.5333,28.76,39,0,1.54,US,1718215140
49,roma,43.2128,-75.4557,19.97,66,100,0.89,US,1718214938
50,isafjordur,66.0755,-23.124,14.02,58,75,2.57,IS,1718215140
51,tutong,4.8,114.65,28.05,85,96,1.43,BN,1718215140
52,port elizabeth,-33.918,25.5701,17.83,69,0,7.72,ZA,1718215141
53,san luis de la loma,17.2706,-100.8939,31.05,60,99,3.57,MX,1718215141
54,strelka,58.0728,93.0344,15.9,72,26,1.0,RU,1718215141
55,fereydun kenar,36.6864,52.5225,25.12,88,40,1.03,IR,1718215142
56,pierre,44.3683,-100.351,30.48,46,0,2.57,US,1718215142
57,waitangi,-43.9535,-176.5597,7.68,75,11,9.62,NZ,1718215142
58,zhangjiakou,40.81,114.8794,19.79,67,76,0.65,CN,1718215143
59,khost,33.3395,69.9204,30.41,22,65,1.36,AF,1718215143
60,grytviken,-54.2811,-36.5092,-4.9,78,20,4.85,GS,1718215143
61,mogadishu,2.0371,45.3438,26.16,80,50,7.9,SO,1718214890
62,aykhal,66.0,111.5,17.48,43,77,2.17,RU,1718215144
63,naze,28.3667,129.4833,23.51,95,100,6.25,JP,1718215144
64,kalmunai,7.4167,81.8167,27.48,76,100,3.58,LK,1718215145
65,bilibino,68.0546,166.4372,9.02,57,1,1.56,RU,1718215145
66,akjoujt,19.6969,-14.4164,41.38,12,8,8.19,MR,1718215145
67,satkania,22.0796,92.0572,27.99,94,96,2.38,BD,1718215145
68,ilhabela,-23.7781,-45.3581,24.52,61,0,1.95,BR,1718215146
69,invercargill,-46.4,168.35,5.57,80,100,1.79,NZ,1718215146
70,weno,7.4515,151.8468,26.97,94,100,3.09,FM,1718215147
71,puerto baquerizo moreno,-0.9,-89.6,25.55,69,75,5.14,EC,1718215001
72,el salto,20.3333,-104.5,32.1,21,3,5.1,MX,1718215147
73,ribeira grande,38.5167,-28.7,22.22,78,20,5.14,PT,1718215148
74,al bawiti,28.3492,28.8659,33.2,17,0,4.04,EG,1718215148
75,whitehorse,60.7161,-135.0538,14.5,43,20,5.66,CA,1718215086
76,alice springs,-23.7,133.8833,7.75,87,0,2.57,AU,1718215148
77,zapolyarnyy,69.4154,30.8136,4.6,83,77,3.63,RU,1718215149
78,gujar khan,33.2558,73.3026,34.79,16,0,3.63,PK,1718215149
79,guiberoua,6.2392,-6.1727,26.64,81,99,2.14,CI,1718215149
80,nantucket,41.2835,-70.0995,22.83,84,0,4.63,US,1718215150
81,amurzet,47.6967,131.0981,10.23,93,21,1.82,RU,1718215150
82,ilulissat,69.2167,-51.1,0.7,99,100,5.38,GL,1718215150
83,georgetown,5.4112,100.3354,29.97,81,20,0.0,MY,1718214941
84,fortuna,40.5982,-124.1573,13.19,93,100,3.6,US,1718215151
85,manokwari,-0.8667,134.0833,25.5,84,99,1.87,ID,1718215151
86,macapa,0.0389,-51.0664,30.99,70,40,2.06,BR,1718215151
87,awjilah,29.1081,21.2869,37.75,12,0,4.6,LY,1718215152
88,goderich,43.7501,-81.7165,23.18,43,40,6.17,CA,1718215152
89,xining,36.6167,101.7667,12.12,83,100,2.52,CN,1718215152
90,chateaulin,48.2,-4.0833,17.34,69,76,3.51,FR,1718215152
91,vila franca do campo,37.7167,-25.4333,21.23,64,67,1.57,PT,1718215153
92,battagram,34.6772,73.0233,24.44,39,8,2.6,PK,1718215153
93,kapuskasing,49.4169,-82.4331,23.05,46,20,7.2,CA,1718215153
94,thunder bay,48.4001,-89.3168,21.95,53,75,4.63,CA,1718214988
95,la passe,45.5549,-0.8967,21.13,70,37,6.16,FR,1718215154
96,lagunas,-5.2269,-75.6753,33.82,47,64,0.56,PE,1718215155
97,punta arenas,-53.15,-70.9167,2.06,93,100,6.17,CL,1718215155
98,mount isa,-20.7333,139.5,8.87,61,4,1.03,AU,1718215155
99,allouez,44.4775,-88.0162,29.3,46,0,3.6,US,1718215156
100,bikenibeu village,1.3673,173.1241,27.98,83,40,3.09,KI,1718215156
101,namibe,-15.1961,12.1522,20.42,73,12,3.06,AO,1718215156
102,longyearbyen,78.2186,15.6401,2.91,81,75,9.77,SJ,1718215157
103,kapa'a,22.0752,-159.319,24.5,88,75,7.2,US,1718215157
104,la oliva,28.6105,-13.9291,21.66,53,20,9.77,ES,1718215157
105,puerto francisco de orellana,-0.4667,-76.9667,28.03,78,75,1.54,EC,1718215157
106,kangding,30.0513,101.9603,14.49,98,99,1.85,CN,1718215158
107,grantsville,40.5999,-112.4644,33.07,27,0,2.68,US,1718215158
108,puerto ayora,-0.7393,-90.3518,26.98,88,86,3.58,EC,1718215158
109,christchurch,-43.5333,172.6333,9.95,85,75,4.63,NZ,1718215159
110,ulladulla,-35.35,150.4667,8.65,73,56,5.01,AU,1718215159
111,flying fish cove,-10.4217,105.6791,25.82,88,100,4.63,CX,1718215159
112,tsiombe,-25.3,45.4833,20.02,87,17,5.08,MG,1718215160
113,daru,-9.0763,143.2092,24.79,87,100,5.9,PG,1718215160
114,sinop,41.7711,34.8709,20.89,67,1,1.75,TR,1718214940
115,upington,-28.4478,21.2561,16.21,33,0,1.54,ZA,1718215161
116,puerto natales,-51.7236,-72.4875,3.25,81,75,1.03,CL,1718215161
117,shanhaiguan,39.9988,119.7564,20.41,72,53,1.7,CN,1718215161
118,antonio enes,-16.2325,39.9086,21.24,81,18,5.46,MZ,1718215162
119,east london,-33.0153,27.9116,14.52,72,0,5.14,ZA,1718215162
120,salekhard,66.53,66.6019,15.22,73,72,2.68,RU,1718215162
121,portland,45.5234,-122.6762,17.77,65,75,2.57,US,1718214837
122,college,64.8569,-147.8028,15.25,89,75,4.63,US,1718215163
123,gwadar,25.1216,62.3254,29.34,85,0,3.49,PK,1718215163
124,tiksi,71.6872,128.8694,2.55,80,42,2.27,RU,1718215164
125,limon,10.0,-83.0333,31.7,70,0,2.06,CR,1718215164
126,vetluzhskiy,58.3902,45.4654,18.49,93,69,4.09,RU,1718215164
127,pestovo,58.5938,35.8024,16.74,76,97,2.24,RU,1718215164
128,turpan,42.9333,89.1667,35.01,17,94,2.27,CN,1718215165
129,rudsar,37.1376,50.288,24.99,91,7,0.51,IR,1718215165
130,ghat,24.9647,10.1728,39.2,7,0,2.49,LY,1718215165
131,dudinka,69.4058,86.1778,8.71,53,62,3.13,RU,1718215166
132,zheleznodorozhnyy,55.7503,38.0042,23.75,92,100,0.37,RU,1718215166
133,simanggang,1.2472,111.4528,23.99,100,100,1.03,MY,1718215166
134,lompoc,34.6391,-120.4579,24.88,89,100,4.12,US,1718215167
135,cole harbour,44.6724,-63.4751,21.66,81,20,6.17,CA,1718215167
136,teknaf,20.8624,92.3058,26.92,86,100,4.2,BD,1718215167
137,bamboo flat,11.7,92.7167,29.05,84,40,3.09,IN,1718215168
138,vredendal,-31.6683,18.5012,14.47,75,1,2.25,ZA,1718215168
139,burao,9.5221,45.5336,26.86,46,97,7.74,SO,1718215168
140,wenling,28.3669,121.36,22.24,97,79,0.89,CN,1718215169
141,jamestown,42.097,-79.2353,23.62,52,20,1.54,US,1718215169
142,kununurra,-15.7667,128.7333,15.99,82,69,1.54,AU,1718215169
143,prien,30.1819,-93.2738,31.68,64,0,4.12,US,1718215170
144,ust-nera,64.5667,143.2,11.07,66,97,1.47,RU,1718215170
145,khandyga,62.6667,135.6,10.14,85,90,1.73,RU,1718215170
146,iskateley,67.6803,53.1512,13.34,74,84,3.13,RU,1718215171
147,orkney,-26.9802,26.6727,13.44,34,4,1.94,ZA,1718215171
148,fort mcmurray,56.7268,-111.381,17.77,59,100,1.03,CA,1718215171
149,vilyuchinsk,52.9306,158.4028,8.85,94,98,0.52,RU,1718215172
150,ixtlahuacan del rio,20.8667,-103.25,32.55,17,3,4.25,MX,1718215172
151,wailua homesteads,22.0669,-159.378,23.75,89,75,7.2,US,1718215172
152,bathsheba,13.2167,-59.5167,31.34,70,20,8.23,BB,1718215172
153,olonkinbyen,70.9221,-8.7187,0.7,95,100,7.53,SJ,1718215173
154,al bardiyah,31.7561,25.0865,27.67,42,0,1.79,LY,1718215173
155,nova sintra,14.8667,-24.7167,23.99,80,29,9.0,CV,1718215173
156,mount gambier,-37.8333,140.7667,9.23,71,100,1.73,AU,1718215174
157,nuuk,64.1835,-51.7216,1.6,83,100,4.02,GL,1718215174
158,clodomira,-27.5744,-64.1311,30.48,40,0,7.94,AR,1718215175
159,gao,16.6362,1.637,39.18,18,10,4.02,ML,1718215175
160,aasiaat,68.7098,-52.8699,0.78,92,100,8.0,GL,1718215175
161,sebastopol,44.6,33.5333,22.22,58,2,0.45,UA,1718215176
162,prado,-17.3411,-39.2208,25.93,61,7,3.87,BR,1718215176
163,ayorou,14.7308,0.9174,39.28,22,25,4.33,NE,1718215177
164,quellon,-43.1167,-73.6167,10.85,95,100,7.01,CL,1718215177
165,lebu,-37.6167,-73.65,13.2,94,100,10.99,CL,1718215177
166,kirakira,-10.4544,161.9205,25.95,88,66,1.88,SB,1718215178
167,twon-brass,4.3151,6.2418,27.46,79,89,3.66,NG,1718215178
168,siwa oasis,29.2041,25.5195,36.48,14,0,4.04,EG,1718215178
169,bandundu,-3.3167,17.3667,26.81,39,16,1.01,CD,1718215178
170,gorodishche,48.8045,44.4744,26.49,57,40,4.0,RU,1718215179
171,tazovsky,67.4667,78.7,8.0,98,100,1.94,RU,1718215179
172,grand falls-windsor,48.9332,-55.6649,21.39,76,100,1.79,CA,1718215179
173,albany,42.6001,-73.9662,22.79,62,81,0.89,US,1718215180
174,cobija,-11.0267,-68.7692,34.1,52,40,2.06,BO,1718215180
175,machico,32.7,-16.7667,22.06,72,40,3.6,PT,1718215181
176,north battleford,52.7834,-108.2847,15.22,77,100,6.17,CA,1718215181
177,qaqortoq,60.7167,-46.0333,4.78,70,43,12.95,GL,1718215181
178,klungkung,-8.5333,115.4,25.38,90,100,0.81,ID,1718215182
179,chabahar,25.2919,60.643,31.19,76,0,3.86,IR,1718215182
180,phan rang-thap cham,11.5667,108.9833,27.78,74,62,1.62,VN,1718215182
181,senanga,-16.1167,23.2667,15.63,32,0,3.01,ZM,1718215182
182,port augusta,-32.5,137.7667,11.81,86,100,0.76,AU,1718215183
183,fukuecho,32.6881,128.8419,21.96,84,98,1.97,JP,1718215183
184,vorgashor,67.5833,63.95,7.67,99,100,1.11,RU,1718215183
185,santa ana de yacuma,-13.75,-65.4333,31.97,55,75,0.0,BO,1718215184
186,ancud,-41.8697,-73.8203,11.87,86,100,7.8,CL,1718215184
187,balabac,7.9868,117.0645,28.0,76,97,2.75,PH,1718215184
188,chui,-33.6971,-53.4616,19.65,89,99,2.66,UY,1718215184
189,coos bay,43.3665,-124.2179,18.51,72,0,5.14,US,1718215185
190,keningau,5.3378,116.1602,22.34,94,94,0.72,MY,1718215185
191,nanning,22.8167,108.3167,26.25,95,100,2.46,CN,1718215185
192,olyokminsk,60.3736,120.4264,12.38,71,70,0.68,RU,1718215186
193,dadukou,26.5479,101.7054,21.92,94,100,0.56,CN,1718215186
194,kashgar,39.4547,75.9797,27.56,17,0,4.0,CN,1718215186
195,akureyri,65.6835,-18.0878,13.96,54,0,6.17,IS,1718215187
196,brisas de zicatela,15.8369,-97.0419,29.74,73,98,3.92,MX,1718215187
197,hadibu,12.65,54.0333,28.76,70,20,5.88,YE,1718215187
198,el galpon,-25.3807,-64.6526,29.43,40,0,4.36,AR,1718215187
199,port saint john's,-31.6229,29.5448,19.33,66,24,2.09,ZA,1718215188
200,remire-montjoly,4.9167,-52.2667,28.02,89,75,2.57,GF,1718215188
201,menongue,-14.6585,17.691,14.09,38,1,2.1,AO,1718215188
202,iqaluit,63.7506,-68.5145,2.85,69,100,3.6,CA,1718215189
203,st. john's,47.5649,-52.7093,18.66,80,75,2.57,CA,1718215130
204,port alfred,-33.5906,26.891,15.66,75,1,1.34,ZA,1718215190
205,port lincoln,-34.7333,135.8667,13.63,76,100,3.68,AU,1718215190
206,bismarck,46.8083,-100.7837,29.91,36,0,9.26,US,1718214935
207,chonchi,-42.6128,-73.8092,11.18,95,100,3.4,CL,1718215190
208,tura,25.5198,90.2201,25.52,94,98,3.92,IN,1718215191
209,fale old settlement,-9.3852,-171.2468,28.78,75,92,3.91,TK,1718215191
210,camapua,-19.5314,-54.0439,33.5,23,0,3.94,BR,1718215191
211,port de pollenca,39.9075,3.0814,22.38,62,60,3.79,ES,1718215192
212,melfi,40.9965,15.6514,23.39,46,50,1.01,IT,1718215192
213,el granada,37.5027,-122.4694,26.71,75,75,4.63,US,1718215192
214,jiangzi,28.95,89.6333,9.49,48,22,2.4,CN,1718215193
215,san pedro pochutla,15.7333,-96.4667,32.28,54,97,3.51,MX,1718215193
216,berezovyy,51.6667,135.7,6.23,94,100,1.18,RU,1718215193
217,port-vila,-17.7338,168.3219,20.78,100,40,1.03,VU,1718215193
218,santa ana,33.7456,-117.8678,26.7,76,75,4.12,US,1718214952
219,la'ie,21.6477,-157.9253,26.98,83,23,2.24,US,1718215194
220,trinity beach,-16.7888,145.6968,16.67,100,54,0.0,AU,1718215195
221,novo horizonte,-21.4681,-49.2208,32.29,18,0,2.86,BR,1718215195
222,saint-joseph,-21.3667,55.6167,21.21,91,100,8.81,RE,1718215195
223,huangshan,29.7114,118.3125,21.31,92,3,0.7,CN,1718215195
224,uijeongbu-si,37.7415,127.0474,19.81,63,99,1.04,KR,1718215196
225,vernon,50.2581,-119.2691,20.16,32,10,1.03,CA,1718215196
226,abyek,36.0667,50.55,27.78,20,22,2.75,IR,1718215196
227,danilovka,50.3557,44.1168,21.16,78,73,5.16,RU,1718215197
228,pangody,65.85,74.4859,14.06,84,100,2.57,RU,1718215197
229,balqash,46.8481,74.995,18.1,55,57,6.88,KZ,1718215197
230,lospalos,-8.5186,127.0025,18.1,88,10,2.08,TL,1718215198
231,acapulco de juarez,16.8634,-99.8901,28.42,62,93,3.82,MX,1718215198
232,ola,59.5833,151.2833,8.97,88,79,1.24,RU,1718215198
233,peace river,56.2501,-117.286,15.17,77,100,2.57,CA,1718215199
234,petropavlovsk-kamchatsky,53.0452,158.6483,8.03,90,75,4.47,RU,1718215199
235,anloga,5.7947,0.8973,27.19,80,50,5.39,GH,1718215199
236,nadym,65.5333,72.5167,14.98,81,100,3.27,RU,1718215200
237,hammerfest,70.6634,23.6821,9.25,81,75,6.17,NO,1718215200
238,saipan,15.1355,145.701,28.39,83,40,3.6,MP,1718215200
239,eyl,7.9803,49.8164,26.87,73,88,9.85,SO,1718215201
240,susuman,62.7833,148.1667,9.43,46,18,1.79,RU,1718215202
241,faya-largeau,17.9257,19.1043,38.58,10,0,3.05,TD,1718215203
242,constantia,44.1833,28.65,24.38,79,75,4.09,RO,1718215203
243,talcahuano,-36.7167,-73.1167,12.82,100,100,14.4,CL,1718215204
244,touros,-5.1989,-35.4608,26.82,81,60,7.13,BR,1718215205
245,katsuura,35.1333,140.3,20.72,86,100,1.25,JP,1718215206
246,hawaiian paradise park,19.5933,-154.9731,23.28,98,100,3.09,US,1718215206
247,le treport,50.0598,1.3758,15.56,69,20,3.02,FR,1718215207
248,pato branco,-26.2286,-52.6706,24.04,46,6,2.43,BR,1718215208
249,tomatlan,19.9333,-105.25,34.01,47,11,5.15,MX,1718215209
250,okhotsk,59.3833,143.3,5.06,93,36,1.91,RU,1718215209
251,kasane,-17.8167,25.15,15.19,39,0,3.58,BW,1718215210
252,porto velho,-8.7619,-63.9039,34.03,36,20,4.12,BR,1718215211
253,kiruna,67.8557,20.2251,12.51,62,75,3.09,SE,1718215212
254,boyolangu,-8.1181,111.8935,23.83,92,100,1.7,ID,1718215213
255,arkhangel'sk,64.5401,40.5433,18.06,68,40,1.0,RU,1718215213
256,dalandzadgad,43.5708,104.425,13.29,72,92,2.85,MN,1718215213
257,seydi,39.4816,62.9137,33.01,14,8,6.37,TM,1718215214
258,el calafate,-50.3408,-72.2768,3.04,93,68,1.94,AR,1718215214
259,los andes,-32.8337,-70.5983,16.74,49,100,0.42,CL,1718215214
260,kerikeri,-35.2268,173.9474,12.25,82,100,2.46,NZ,1718215215
261,ad dabbah,18.05,30.95,37.95,8,77,3.39,SD,1718215215
262,carnarvon,-24.8667,113.6333,19.25,77,15,7.05,AU,1718215216
263,chokwe,-24.5333,32.9833,18.99,54,0,2.37,MZ,1718215216
264,isangel,-19.55,169.2667,22.22,87,37,1.88,VU,1718215216
265,pandan,14.0453,124.1694,26.88,86,53,1.46,PH,1718215217
266,lerwick,60.1545,-1.1494,10.0,85,97,4.27,GB,1718215217
267,mednogorsk,51.4128,57.595,20.74,56,3,3.08,RU,1718215217
268,arno,60.1167,18.6333,13.77,84,66,1.42,SE,1718215218
269,tocopilla,-22.092,-70.1979,20.78,68,57,3.43,CL,1718215218
270,sena madureira,-9.0656,-68.6569,36.09,34,16,0.88,BR,1718215219
271,khanabad,36.6825,69.1156,32.08,17,0,2.81,AF,1718215219
272,skelleftea,64.7507,20.9528,17.78,69,20,2.06,SE,1718215219
273,kudahuvadhoo,2.6708,72.8944,28.73,75,10,4.14,MV,1718215220
274,liman,48.9884,37.8023,19.25,90,95,1.08,UA,1718215220
275,kenai,60.5544,-151.2583,10.57,78,100,3.09,US,1718215220
276,pisco,-13.7,-76.2167,18.03,82,40,4.63,PE,1718215221
277,queenstown,-31.8976,26.8753,9.6,48,0,0.71,ZA,1718215221
278,guerrero negro,27.9769,-114.0611,21.79,60,0,7.12,MX,1718215221
279,muli,2.9167,73.5667,28.66,76,46,4.38,MV,1718215222
280,tambopata,-12.7333,-69.1833,24.94,94,75,1.54,PE,1718215222
281,strugi-krasnyye,58.2675,29.1114,13.36,76,100,2.07,RU,1718215223
282,alofi,-19.0595,-169.9187,23.94,88,75,3.6,NU,1718215223
283,esperanza,19.5847,-70.9849,34.05,57,52,3.58,DO,1718215224
284,skowhegan,44.7651,-69.7192,22.31,92,99,1.02,US,1718215224
285,kailua-kona,19.6406,-155.9956,26.1,81,8,0.61,US,1718215224
286,gebeit,21.0667,36.3167,33.12,15,5,2.74,SD,1718215225
287,luau,-10.7073,22.2247,18.3,40,21,1.75,AO,1718215225
288,ugoofaaru,5.6667,73.0,28.8,77,100,5.03,MV,1718215226
289,crane,31.3974,-102.3501,30.8,41,0,1.48,US,1718215226
290,port blair,11.6667,92.75,29.02,84,40,3.09,IN,1718215226
291,fortaleza,-3.7227,-38.5247,31.07,66,75,5.66,BR,1718215226
292,fiorenzuola d'arda,44.9221,9.909,20.34,62,40,7.72,IT,1718215227
293,hithadhoo,-0.6,73.0833,28.65,71,20,1.36,MV,1718215227
294,harar,9.3094,42.1258,16.65,82,85,2.71,ET,1718215227
295,mollendo,-17.0231,-72.0147,19.02,71,97,3.24,PE,1718215228
296,omdurman,15.6445,32.4777,38.92,12,2,0.44,SD,1718215228
297,zyryanovsk,49.7386,84.2719,12.63,90,17,0.7,KZ,1718215229
298,tonkino,57.3726,46.4629,17.2,94,54,2.83,RU,1718215229
299,la asuncion,11.0333,-63.8628,28.9,66,90,7.81,VE,1718215229
300,arcos,-20.2819,-45.5394,28.05,25,0,2.87,BR,1718215230
301,new norfolk,-42.7826,147.0587,5.72,88,100,0.79,AU,1718215230
302,ta`u,-14.2336,-169.5144,27.85,83,100,7.95,AS,1718215230
303,manismata,-2.4667,111.0333,23.71,96,100,0.61,ID,1718215231
304,alton north (historical),26.2953,-98.3045,37.74,53,0,0.89,US,1718215231
305,rongelap,11.1635,166.8941,28.04,82,34,9.9,MH,1718215232
306,pingnan,23.5543,110.3976,26.15,93,100,0.08,CN,1718215233
307,kitgum,3.2783,32.8867,19.64,91,71,1.13,UG,1718215233
308,worland,44.0169,-107.9554,31.49,35,0,0.89,US,1718215233
309,waingapu,-9.6567,120.2641,23.08,89,24,2.59,ID,1718215234
310,redencao,-4.2258,-38.7306,28.3,72,100,3.32,BR,1718215234
311,salzwedel,52.85,11.15,13.34,83,86,4.34,DE,1718215234
312,nagqu,31.5,92.0,7.55,66,100,2.61,CN,1718215235
313,bayanhongor,46.7167,100.1167,6.36,75,9,1.64,MN,1718215235
314,ushibukamachi,32.1906,130.0228,21.86,89,100,2.01,JP,1718215236
315,luderitz,-26.6481,15.1594,15.83,68,0,4.28,NA,1718215236
316,tolanaro,-25.0319,46.9987,21.04,88,75,6.17,MG,1718215236
317,puerto san jose,13.9256,-90.8244,29.71,73,100,4.82,GT,1718215237
318,cabo san lucas,22.8909,-109.9124,28.75,42,33,1.79,MX,1718215010
319,severo-yeniseyskiy,60.3725,93.0408,18.1,59,96,1.34,RU,1718215237
320,siesta key,27.302,-82.5515,33.95,67,47,0.89,US,1718215238
321,benque viejo el carmen,17.075,-89.1392,30.01,74,75,0.0,BZ,1718215238
322,paita,-5.0892,-81.1144,22.99,71,37,5.91,PE,1718215238
323,christiana,-27.914,25.1611,13.78,36,4,3.9,ZA,1718215239
324,ad dawadimi,24.5077,44.3924,38.64,18,80,4.88,SA,1718215239
325,lahaina,20.8783,-156.6825,27.22,87,9,3.7,US,1718215239
326,ha'il,27.5219,41.6907,36.01,12,0,5.14,SA,1718215240
327,palafrugell,41.9174,3.1631,14.7,95,90,1.34,ES,1718215169
328,afaahiti,-17.75,-149.2833,23.94,64,58,6.42,PF,1718215240
329,worthington,40.0931,-83.018,28.36,41,2,1.79,US,1718215241
330,road town,18.4167,-64.6167,31.02,70,75,4.12,VG,1718215241
331,olinda,-8.0089,-34.8553,28.85,70,75,7.72,BR,1718215242
332,yanbu,24.0891,38.0637,34.02,46,20,9.26,SA,1718215242
333,richards bay,-28.783,32.0377,18.91,55,0,3.23,ZA,1718215242
334,balykshi,47.0667,51.8667,27.0,39,0,3.0,KZ,1718215243
335,vadso,70.0744,29.7487,6.09,81,75,6.69,NO,1718215243
336,minas de marcona,-15.2119,-75.1103,20.22,48,79,4.29,PE,1718215243
337,rodolfo sanchez taboada,31.7167,-116.5667,20.61,71,1,1.34,MX,1718215244
338,nadi,-17.8,177.4167,21.0,94,20,3.09,FJ,1718215244
339,lensk,60.7253,114.9278,13.26,74,59,1.37,RU,1718215245
340,camacupa,-12.0167,17.4833,14.91,38,3,0.87,AO,1718215245
341,sisimiut,66.9395,-53.6735,0.65,99,100,4.76,GL,1718215245
342,punta del este,-34.9667,-54.95,21.06,95,100,0.51,UY,1718215246
343,uray,60.1247,64.7758,20.45,86,65,2.9,RU,1718215246
344,las tablas,7.7667,-80.2833,29.62,73,100,2.52,PA,1718215246
345,chibougamau,49.9168,-74.3659,21.79,53,40,6.69,CA,1718215247
346,homer,59.6425,-151.5483,10.58,75,45,0.82,US,1718215247
347,puerto penasco,31.3167,-113.5333,34.99,54,0,3.09,MX,1718215247
348,enewetak,11.3474,162.3373,27.84,83,20,8.36,MH,1718215248
349,palmas,-10.2128,-48.3603,31.93,35,0,5.14,BR,1718215248
350,revda,56.801,59.9303,18.49,92,73,2.63,RU,1718215248
351,baotou,40.6522,109.8222,25.64,28,28,3.08,CN,1718215249
352,cam ranh,11.9214,109.1591,29.98,79,20,0.51,VN,1718215249
353,jayapura,-2.5333,140.7,24.66,96,100,0.93,ID,1718215249
354,haiku-pauwela,20.9219,-156.3051,26.23,81,29,4.02,US,1718215250
355,san antonio de pale,-1.4014,5.6325,24.93,82,79,4.79,GQ,1718215250
356,kavieng,-2.5744,150.7967,27.72,78,95,3.9,PG,1718215250
357,port victoria,0.0939,33.9756,22.16,70,31,2.39,KE,1718215251
358,dange,12.8513,5.3471,35.11,31,69,5.27,NG,1718215251
359,kayangel,8.0823,134.7173,28.44,78,97,3.77,PW,1718215252
360,binzhou,37.3667,118.0167,26.83,49,14,2.85,CN,1718215252
361,cidreira,-30.1811,-50.2056,22.53,74,32,2.77,BR,1718215252
362,lazarevskoye,43.9061,39.3331,22.09,77,38,1.11,RU,1718215253
363,kodinar,20.7903,70.7031,29.75,77,0,4.61,IN,1718215253
364,pakhtakoron,40.1571,68.7466,28.27,30,73,2.2,TJ,1718215253
365,tekirova,36.5017,30.5272,28.88,43,0,2.46,TR,1718215254
366,puerto ayacucho,5.6639,-67.6236,30.92,69,76,0.81,VE,1718215254
367,labytnangi,66.6572,66.4183,15.21,73,72,2.42,RU,1718215254
368,srivardhan,18.0333,73.0167,28.3,79,31,2.57,IN,1718215255
369,gangapur,26.4833,76.7167,36.5,27,99,6.36,IN,1718215255
370,kristinestad,62.2743,21.376,15.61,80,12,2.07,FI,1718215256
371,shuangjiang,26.1547,109.7138,22.17,98,94,1.33,CN,1718215256
372,gaspe,48.8334,-64.4819,15.12,82,75,8.75,CA,1718214973
373,sinabang,2.4803,96.3801,26.65,80,85,1.51,ID,1718215256
374,al qubbah,32.7616,22.2424,29.95,19,0,2.2,LY,1718215257
375,sigli,5.3848,95.9609,27.02,78,80,2.59,ID,1718215257
376,sakakah,29.9697,40.2064,36.76,9,0,4.73,SA,1718215257
377,mangai,-4.05,19.5333,25.27,48,39,0.56,CD,1718215258
378,pakxan,18.3778,103.6601,25.16,88,95,1.6,LA,1718215258
379,luis correia,-2.8792,-41.6669,34.0,49,20,3.6,BR,1718215259
380,rio grande,-32.035,-52.0986,27.06,73,100,4.09,BR,1718215259
381,manikpur,25.0667,81.1167,38.99,18,23,4.03,IN,1718215259
382,ponta delgada,37.7333,-25.6667,21.4,78,40,3.09,PT,1718215260
383,adiyaman,37.75,38.25,29.34,23,0,2.0,TR,1718215260
384,mountain house,37.7833,-121.5427,32.73,40,0,7.2,US,1718215260
385,roscommon,53.6333,-8.1833,15.06,66,90,3.38,IE,1718215261
386,polyarnyy,69.1989,33.4478,5.59,88,95,6.46,RU,1718215261
387,namie,37.4833,141.0,20.3,93,18,1.87,JP,1718215261
388,kidal,18.4411,1.4078,40.23,15,38,1.71,ML,1718215262
389,shubarshi,48.5872,57.1869,25.41,33,5,4.61,KZ,1718215262
390,alness,57.696,-4.2551,14.36,58,57,1.89,GB,1718215262
391,galle,6.0367,80.217,29.4,82,98,6.18,LK,1718215082
392,kharp,66.8014,65.8081,14.84,88,83,2.99,RU,1718215263
393,badagry,6.4167,2.8833,26.87,82,40,4.24,NG,1718215264
394,fort bragg,35.139,-79.006,31.01,49,75,3.09,US,1718215264
395,geraldton,-28.7667,114.6,14.23,94,0,4.12,AU,1718215264
396,mount pearl,47.5166,-52.7813,18.19,80,75,2.57,CA,1718215265
397,summerlin south,36.1027,-115.3811,36.89,11,0,0.45,US,1718215265
398,ilha de mocambique,-15.0342,40.7358,25.34,56,9,10.01,MZ,1718215265
399,keetmanshoop,-26.5833,18.1333,21.51,35,0,2.06,NA,1718215266
400,taghazout,30.5426,-9.7112,24.43,46,85,9.69,MA,1718215266
401,obo,5.3998,26.4869,20.41,93,81,1.72,CF,1718215266
402,belvedere marittimo,39.6179,15.8617,22.8,77,97,2.13,IT,1718215267
403,pindwara,24.8,73.0667,30.91,41,9,3.02,IN,1718215267
404,lethbridge,49.7,-112.8186,19.27,24,20,10.8,CA,1718214859
405,palikir - national government center,6.9248,158.1611,27.41,89,75,2.06,FM,1718215268
406,marataizes,-21.0433,-40.8244,24.34,69,1,6.56,BR,1718215268
407,trevoux,45.9411,4.7673,20.34,49,22,4.18,FR,1718215268
408,ocean city,39.2776,-74.5746,26.12,46,52,3.33,US,1718215269
409,playa vicente,17.8333,-95.8167,37.63,26,91,3.05,MX,1718215269
410,newnham,-41.3833,147.1333,0.53,93,14,0.0,AU,1718215269
411,usogorsk,63.4106,48.6872,20.93,60,64,2.18,RU,1718215270
412,vernal,40.4555,-109.5287,30.36,22,0,4.02,US,1718215270
413,kibakwe,-6.7167,36.3667,15.56,72,10,1.72,TZ,1718215271
414,micheweni,-4.9667,39.8333,24.79,65,9,6.23,TZ,1718215271
415,svobodnyy,51.4,128.1333,10.24,64,72,2.46,RU,1718215272
416,yayva,59.3303,57.2641,20.65,96,47,3.3,RU,1718215272
417,zeya,53.75,127.2667,10.27,86,14,1.83,RU,1718215272
418,stornoway,58.2093,-6.3865,11.98,72,75,0.89,GB,1718215273
419,smithers,54.7804,-127.1743,11.18,66,100,2.57,CA,1718215273
420,trincomalee,8.5711,81.2335,28.06,77,100,9.2,LK,1718215273
421,wewak,-3.5534,143.6268,25.33,94,100,5.42,PG,1718215274
422,corner brook,48.9667,-57.9484,22.09,69,100,3.2,CA,1718215274
423,viitasaari,63.0667,25.8667,14.27,66,75,1.47,FI,1718215274
424,kosh-agach,50.0,88.6667,12.39,68,61,0.89,RU,1718215275
425,malax,62.9423,21.5731,14.97,68,0,2.06,FI,1718215275
426,huarmey,-10.0681,-78.1522,21.61,70,100,4.7,PE,1718215275
427,trosa,58.8962,17.5481,16.23,76,88,2.84,SE,1718215276
428,westport,41.1415,-73.3579,25.44,54,40,2.24,US,1718215276
429,sinsang-ni,39.6503,127.4058,17.72,87,98,1.35,KP,1718215276
430,san carlos de bariloche,-41.1456,-71.3082,7.86,87,75,0.0,AR,1718215277
431,baruun-urt,46.6806,113.2792,11.54,72,94,4.01,MN,1718215277
432,west end,26.6833,-78.9667,26.99,78,100,5.12,BS,1718215277
433,san bernardo del viento,9.3533,-75.9524,30.21,73,76,3.03,CO,1718215278
434,torghay,49.6339,63.4981,20.83,69,61,6.58,KZ,1718215278
435,souillac,-20.5167,57.5167,24.21,78,75,6.69,MU,1718215278
436,gustavia,17.8962,-62.8498,31.77,75,100,4.47,BL,1718214636
437,duong dong,10.2167,103.9667,27.0,83,40,2.06,VN,1718215279
438,bridgeport,41.167,-73.2048,25.55,57,33,2.24,US,1718215279
439,saldanha,-33.0117,17.9442,12.03,89,1,1.24,ZA,1718215280
440,mae hong son,19.3003,97.9685,23.54,99,87,0.93,TH,1718215280
441,harstad,68.799,16.5293,11.66,98,97,0.89,NO,1718215280
442,grootfontein,-19.5667,18.1167,11.76,37,0,0.51,NA,1718215281
443,derbent,42.0678,48.2899,24.29,74,99,2.66,RU,1718215281
444,lihue,21.9789,-159.3672,24.09,93,75,7.2,US,1718215098
445,ban karon,7.8477,98.2985,28.95,78,70,5.83,TH,1718215282
446,myrzakent,40.6667,68.5333,28.84,30,1,6.38,KZ,1718215282
447,bagudo,11.4033,4.2296,30.82,57,82,3.11,NG,1718215282
448,mococa,-21.4678,-47.0047,30.22,19,0,3.72,BR,1718215283
449,recani,31.2846,-4.2688,33.89,13,13,1.74,MA,1718215283
450,taltal,-25.4,-70.4833,17.5,68,12,1.71,CL,1718215239
451,motygino,58.1831,94.7592,15.99,66,30,1.34,RU,1718215284
452,kupang,-10.1667,123.5833,25.32,88,19,2.57,ID,1718215284
453,tralee,52.2704,-9.7026,16.14,59,40,5.14,IE,1718215284
454,pedregulho,-20.2569,-47.4767,28.43,19,0,3.3,BR,1718215285
455,saurimo,-9.6608,20.3916,18.9,41,53,1.65,AO,1718215285
456,jonava,55.0833,24.2833,17.03,66,0,1.54,LT,1718215285
457,tchollire,8.4022,14.1698,28.58,55,27,1.71,CM,1718215286
458,porbandar,21.6422,69.6093,29.48,77,43,4.29,IN,1718215286
459,faridpur,23.6,89.8333,28.68,77,95,6.43,BD,1718215287
460,goalpara,26.1667,90.6167,28.15,82,97,1.37,IN,1718215287
461,forster,-32.1667,152.5167,11.83,61,94,7.98,AU,1718215287
462,klaksvik,62.2266,-6.589,9.51,82,82,1.79,FO,1718215288
463,konarka,19.9,86.1167,30.22,87,42,8.23,IN,1718215288
464,tosontsengel,48.7567,98.2839,10.05,59,90,1.06,MN,1718215289
465,letlhakeng,-24.0944,25.0298,13.31,32,0,0.42,BW,1718215289
466,penzance,50.1186,-5.5371,16.38,67,24,4.65,GB,1718215290
467,envira,-7.3,-70.2167,34.13,43,18,0.9,BR,1718215290
468,cobourg,50.2667,10.9667,17.1,57,61,1.66,DE,1718215290
469,sittwe,20.15,92.9,27.51,82,100,4.68,MM,1718215291
470,saint-francois,46.4154,3.9054,17.69,46,0,1.54,FR,1718215291
471,jiangyou,31.7667,104.7167,25.54,65,100,1.07,CN,1718215291
472,leshan,29.5623,103.7639,24.21,80,64,0.04,CN,1718215292
473,houmt el souk,33.8758,10.8575,23.97,83,40,8.23,TN,1718215292
474,vrangel',42.7297,133.0839,12.04,97,82,4.98,RU,1718215293
475,huai yot,7.7893,99.6348,24.32,98,71,0.94,TH,1718215293
476,bengkulu,-3.8004,102.2655,24.45,96,100,2.2,ID,1718215293
477,bonthe,7.5264,-12.505,28.16,76,100,4.33,SL,1718215294
478,karor,31.2274,70.9492,39.28,12,2,4.67,PK,1718215294
479,manta,-0.95,-80.7333,25.88,78,100,2.57,EC,1718215261
480,al jaradiyah,16.5795,42.9124,33.72,63,5,3.03,SA,1718215295
481,stefan voda,46.5153,29.6631,19.13,72,46,2.42,MD,1718215295
482,kapshagay,43.8833,77.0833,18.7,63,52,1.1,KZ,1718215295
483,chizhou,30.6578,117.4831,23.72,90,34,1.98,CN,1718215296
484,porto novo,6.4965,2.6036,29.9,81,53,3.82,BJ,1718215296
485,malazgirt,39.1427,42.5401,18.16,54,5,1.75,TR,1718215296
486,cabedelo,-6.9811,-34.8339,29.37,75,13,7.15,BR,1718215297
487,fuding,27.3273,120.214,24.11,98,100,0.86,CN,1718215297
488,nizhniy ingash,56.2,96.53,14.86,69,8,0.64,RU,1718215297
489,gobernador virasora,-28.05,-56.0333,30.58,57,3,0.89,AR,1718215298
490,seabra,-12.4186,-41.7703,22.56,62,88,4.76,BR,1718215298
491,necochea,-38.5473,-58.7368,18.47,69,100,2.01,AR,1718215299
492,carnikava,57.1294,24.2744,16.01,85,64,4.63,LV,1718215299
493,yamrat,10.1116,9.826,29.28,52,10,2.11,NG,1718215300
494,antsiranana,-12.2787,49.2917,24.79,79,80,1.35,MG,1718215300
495,estancia,-11.2683,-37.4383,26.8,68,38,4.24,BR,1718215300
496,chirilagua,13.2203,-88.1386,27.37,90,100,1.52,SV,1718215301
497,mata-utu,-13.2816,-176.1745,27.14,78,58,0.85,WF,1718215301
498,rikaze,29.25,88.8833,15.5,46,68,3.77,CN,1718215301
499,sunne,59.8376,13.143,16.18,55,98,2.42,SE,1718215301
500,assare,-6.8744,-39.875,30.57,38,64,5.29,BR,1718215302
501,timbuktu,16.7735,-3.0074,39.3,22,34,3.88,ML,1718215302
502,mancio lima,-7.6142,-72.8958,30.04,66,75,2.06,BR,1718215302
503,saveh,35.0213,50.3566,32.69,14,49,3.9,IR,1718215303
504,axim,4.8699,-2.2405,26.58,79,95,3.99,GH,1718215303
505,tangalle,6.024,80.7911,26.33,90,100,4.94,LK,1718215303
506,gargalianoi,37.0667,21.6333,28.53,46,31,1.57,GR,1718215304
507,ves'yegonsk,58.664,37.2604,17.16,92,100,2.23,RU,1718215304
508,posto fiscal rolim de moura,-13.0833,-62.2667,36.65,25,64,1.14,BR,1718215305
509,williston,48.147,-103.618,27.12,34,1,2.68,US,1718215305
510,okha,53.5739,142.9478,6.25,95,100,4.02,RU,1718215305
511,yerofey pavlovich,53.9667,121.9667,11.35,79,97,2.16,RU,1718215306
512,gulf breeze,30.3571,-87.1639,34.01,51,75,2.57,US,1718215306
513,pangkalanbuun,-2.6833,111.6167,23.74,99,100,0.33,ID,1718215306
514,soe,-9.8607,124.284,14.57,96,40,1.92,ID,1718215306
515,alamosa,37.4695,-105.87,23.99,31,0,2.57,US,1718215307
516,nguigmi,14.2495,13.1092,32.39,40,7,4.45,NE,1718215307
517,san julian,21.0167,-102.1667,30.32,16,10,7.99,MX,1718215307
518,floro,61.5996,5.0328,11.98,54,20,7.72,NO,1718215308
519,eydhafushi,5.1033,73.0708,28.87,75,77,4.93,MV,1718215308
520,amlapura,-8.45,115.6167,23.94,85,62,2.84,ID,1718215308
521,acarau,-2.8856,-40.12,29.06,72,46,7.0,BR,1718215309
522,tobelo,1.7284,128.0095,26.7,84,100,2.57,ID,1718215309
523,pico truncado,-46.7949,-67.9573,8.67,65,48,8.44,AR,1718215309
524,dawson creek,55.7666,-120.2362,12.8,82,20,6.17,CA,1718215310
525,ligaya,12.6599,120.8923,27.09,84,11,1.51,PH,1718215310
526,satipo,-11.2522,-74.6386,33.39,37,42,0.82,PE,1718215310
527,broken hill,-31.95,141.4333,9.71,67,88,2.62,AU,1718215311
528,egilsstadir,65.2653,-14.3948,15.95,41,0,5.66,IS,1718215311
529,labrador city,52.9463,-66.9114,25.1,36,75,3.09,CA,1718215312
530,callao,-12.0667,-77.15,18.16,94,100,3.09,PE,1718215312
531,ashland,40.8167,-82.2665,26.68,60,0,2.72,US,1718215312
532,malanje,-9.5402,16.341,18.91,36,6,1.51,AO,1718215313
533,owo,7.1962,5.5868,25.49,79,84,1.6,NG,1718215313
534,barcelos,41.5388,-8.6151,24.95,52,12,5.89,PT,1718215313
535,moyale,3.5167,39.0584,20.83,61,23,2.31,KE,1718215313
536,carutapera,-1.195,-46.02,26.96,90,87,3.96,BR,1718215314
537,kiama,-34.6833,150.8667,10.32,68,99,2.24,AU,1718215314
538,veraval,20.9,70.3667,29.84,79,0,4.37,IN,1718215315
539,belyy yar,53.6039,91.3903,14.94,77,0,2.0,RU,1718215315
540,sievi,63.9,24.5,14.06,66,42,1.58,FI,1718215315
541,qusmuryn,52.4503,64.6311,19.14,91,95,1.79,KZ,1718215316
542,morehead city,34.7229,-76.726,30.01,56,0,4.02,US,1718215316
543,ts'khinvali,42.2276,43.9686,16.9,67,47,2.74,GE,1718215316
544,kingscliff,-28.2667,153.5667,13.89,54,0,4.63,AU,1718215317
545,ceres,37.5949,-120.9577,33.45,17,0,2.18,US,1718215317
546,taroa,8.7058,171.2275,28.02,81,97,8.89,MH,1718215317
547,cill airne,52.05,-9.5167,16.03,59,40,5.14,IE,1718215318
548,prince rupert,54.3161,-130.3201,11.05,70,0,3.6,CA,1718215318
549,voi,-3.3945,38.563,20.61,64,22,4.0,KE,1718215318
550,carbonear,47.7332,-53.2148,14.12,87,100,1.93,CA,1718215319
551,shakhtersk,48.0625,38.5167,24.5,56,74,2.51,UA,1718215319
552,yeraliyev,43.2,51.65,24.04,64,52,3.05,KZ,1718215319
553,beaver falls,40.752,-80.3192,27.97,42,40,0.45,US,1718215320
554,dwarka,22.2394,68.9678,29.33,80,39,6.1,IN,1718215320
555,nurlat,54.4277,50.8051,21.58,71,0,3.88,RU,1718215320
556,zhalantun,48.0,122.7167,15.3,75,100,4.11,CN,1718215320
557,el vendrell,41.2167,1.5333,21.47,61,99,6.22,ES,1718215321
558,igarka,67.4667,86.5833,7.79,64,95,2.68,RU,1718215321
